{"96.7.252.172": {"domain_name": "e3422.dscd.akamaiedge.net", "connection_times": 3684, "HTTP": 3684, "malicious": false, "country_code": "US", "country": "United States", "city": null, "latitude": 37.751, "longitude": -97.822}, "151.101.78.110": {"domain_name": "f4.shared.global.fastly.net", "connection_times": 2405, "HTTPS": 2405, "malicious": false, "country_code": "HK", "country": "Hong Kong", "city": "Central", "latitude": 22.2909, "longitude": 114.15}, "96.7.253.227": {"domain_name": "e10204.dsca.akamaiedge.net", "connection_times": 1371, "HTTPS": 1371, "malicious": false, "country_code": "US", "country": "United States", "city": null, "latitude": 37.751, "longitude": -97.822}, "13.35.34.99": {"domain_name": null, "connection_times": 830, "HTTPS": 830, "malicious": false, "country_code": "US", "country": "United States", "city": null, "latitude": 37.751, "longitude": -97.822}, "203.88.160.233": {"domain_name": "cdn-adn-https.rayjump.com.qtlgslb.com", "connection_times": 808, "HTTPS": 808, "malicious": false, "country_code": "HK", "country": "Hong Kong", "city": null, "latitude": 22.25, "longitude": 114.1667}, "210.61.248.168": {"domain_name": "a1822.dscd.akamai.net", "connection_times": 491, "HTTPS": 491, "malicious": false, "country_code": "TW", "country": "Taiwan", "city": null, "latitude": 23.5, "longitude": 121.0}, "172.217.160.98": {"domain_name": null, "connection_times": 266, "HTTPS": 266, "malicious": false, "country_code": "US", "country": "United States", "city": null, "latitude": 37.751, "longitude": -97.822}, "161.117.83.123": {"domain_name": "analytics-http.mintegral.net", "connection_times": 219, "HTTPS": 219, "malicious": false, "country_code": "SG", "country": "Singapore", "city": null, "latitude": 1.3667, "longitude": 103.8}, "18.136.180.82": {"domain_name": null, "connection_times": 137, "HTTPS": 137, "malicious": false, "country_code": "SG", "country": "Singapore", "city": "Singapore", "latitude": 1.2929, "longitude": 103.8547}, "168.95.1.1": {"domain_name": null, "connection_times": 78, "DNS": 78, "malicious": true, "country_code": "TW", "country": "Taiwan", "city": null, "latitude": 23.5, "longitude": 121.0}, "216.58.200.46": {"domain_name": null, "connection_times": 76, "HTTPS": 70, "malicious": false, "country_code": "US", "country": "United States", "city": "Mountain View", "latitude": 37.4043, "longitude": -122.0748}, "13.35.7.35": {"domain_name": null, "connection_times": 58, "HTTPS": 58, "malicious": false, "country_code": "US", "country": "United States", "city": null, "latitude": 37.751, "longitude": -97.822}, "161.117.162.97": {"domain_name": null, "connection_times": 54, "HTTPS": 54, "malicious": false, "country_code": "SG", "country": "Singapore", "city": "Singapore", "latitude": 1.2895, "longitude": 103.8207}, "35.227.198.107": {"domain_name": "sdk-diagnostics.prd.mz.internal.unity3d.com", "connection_times": 52, "HTTPS": 52, "malicious": false, "country_code": "US", "country": "United States", "city": null, "latitude": 37.751, "longitude": -97.822}, "203.74.95.144": {"domain_name": null, "connection_times": 51, "HTTPS": 51, "malicious": false, "country_code": "TW", "country": "Taiwan", "city": null, "latitude": 23.5, "longitude": 121.0}, "104.198.52.73": {"domain_name": "nginx-auction-prd-gcp.adsx.unityads.unity3d.com", "connection_times": 51, "HTTPS": 51, "malicious": false, "country_code": "US", "country": "United States", "city": null, "latitude": 38.6583, "longitude": -77.2481}, "104.45.180.93": {"domain_name": "config.eastus-ssp.appgwv2.inmobi.com", "connection_times": 50, "HTTPS": 50, "malicious": false, "country_code": "US", "country": "United States", "city": "Washington", "latitude": 38.7095, "longitude": -78.1539}, "35.241.52.229": {"domain_name": "thind-gke-usc.prd.data.corp.unity3d.com", "connection_times": 45, "HTTPS": 45, "malicious": false, "country_code": null, "country": null, "city": null, "latitude": 35.0, "longitude": 105.0}, "69.171.250.35": {"domain_name": "star-mini.c10r.facebook.com", "connection_times": 42, "HTTPS": 42, "malicious": false, "country_code": "US", "country": "United States", "city": "West Chester", "latitude": 39.9845, "longitude": -75.586}, "216.239.32.21": {"domain_name": null, "connection_times": 41, "HTTPS": 41, "malicious": false, "country_code": "US", "country": "United States", "city": "Mountain View", "latitude": 37.4043, "longitude": -122.0748}, "185.151.204.10": {"domain_name": null, "connection_times": 40, "HTTPS": 40, "malicious": false, "country_code": "DE", "country": "Germany", "city": null, "latitude": 51.2993, "longitude": 9.491}, "52.220.238.240": {"domain_name": null, "connection_times": 39, "HTTPS": 39, "malicious": false, "country_code": "SG", "country": "Singapore", "city": "Singapore", "latitude": 1.2929, "longitude": 103.8547}, "35.244.185.185": {"domain_name": "ads-game-configuration.unityads.unity3d.com", "connection_times": 32, "HTTPS": 32, "malicious": false, "country_code": "US", "country": "United States", "city": null, "latitude": 37.751, "longitude": -97.822}, "35.201.119.151": {"domain_name": "gce-beacons.gcp.gvt2.com", "connection_times": 31, "HTTPS": 31, "malicious": false, "country_code": null, "country": null, "city": null, "latitude": 35.0, "longitude": 105.0}, "52.0.212.243": {"domain_name": null, "connection_times": 30, "HTTPS": 30, "malicious": false, "country_code": "US", "country": "United States", "city": "Ashburn", "latitude": 39.0481, "longitude": -77.4728}, "172.217.24.2": {"domain_name": null, "connection_times": 29, "HTTPS": 29, "malicious": false, "country_code": "US", "country": "United States", "city": null, "latitude": 37.751, "longitude": -97.822}, "35.190.5.180": {"domain_name": "auiopt.unityads.unity3d.com", "connection_times": 29, "HTTPS": 29, "malicious": false, "country_code": "US", "country": "United States", "city": null, "latitude": 37.751, "longitude": -97.822}, "52.94.208.72": {"domain_name": "aax-fe.amazon-adsystem.com", "connection_times": 27, "HTTPS": 27, "malicious": false, "country_code": "US", "country": "United States", "city": "Boardman", "latitude": 45.8491, "longitude": -119.7143}, "52.79.222.152": {"domain_name": null, "connection_times": 26, "HTTPS": 26, "malicious": false, "country_code": "KR", "country": "South Korea", "city": "Incheon", "latitude": 37.4562, "longitude": 126.7288}, "52.94.224.25": {"domain_name": "mads.amazon.com", "connection_times": 25, "HTTPS": 25, "malicious": false, "country_code": "US", "country": "United States", "city": "Ashburn", "latitude": 39.0481, "longitude": -77.4728}, "35.244.205.3": {"domain_name": "httpkafka.unityads.unity3d.com", "connection_times": 25, "HTTPS": 25, "malicious": false, "country_code": "US", "country": "United States", "city": null, "latitude": 37.751, "longitude": -97.822}, "34.235.45.1": {"domain_name": null, "connection_times": 25, "HTTPS": 25, "malicious": true, "country_code": "US", "country": "United States", "city": "Ashburn", "latitude": 39.0481, "longitude": -77.4728}, "34.236.104.44": {"domain_name": null, "connection_times": 25, "HTTPS": 25, "malicious": false, "country_code": "US", "country": "United States", "city": "Ashburn", "latitude": 39.0481, "longitude": -77.4728}, "35.241.26.53": {"domain_name": "remote-config-proxy-prd.uca.cloud.unity3d.com", "connection_times": 22, "HTTPS": 22, "malicious": false, "country_code": "US", "country": "United States", "city": "Mountain View", "latitude": 37.4043, "longitude": -122.0748}, "162.14.18.253": {"domain_name": "adx-tk.rayjump.com", "connection_times": 22, "HTTPS": 22, "malicious": false, "country_code": "US", "country": "United States", "city": null, "latitude": 34.0544, "longitude": -118.244}, "210.61.248.227": {"domain_name": "a1822.dscd.akamai.net", "connection_times": 21, "HTTPS": 21, "malicious": false, "country_code": "TW", "country": "Taiwan", "city": null, "latitude": 23.5, "longitude": 121.0}, "52.72.94.109": {"domain_name": null, "connection_times": 13, "HTTPS": 13, "malicious": false, "country_code": "US", "country": "United States", "city": "Ashburn", "latitude": 39.0481, "longitude": -77.4728}, "66.242.8.22": {"domain_name": null, "connection_times": 10, "HTTPS": 10, "malicious": false, "country_code": "US", "country": "United States", "city": null, "latitude": 37.751, "longitude": -97.822}, "106.11.250.205": {"domain_name": null, "connection_times": 5, "HTTP": 5, "malicious": false, "country_code": "CN", "country": "China", "city": "Shanghai", "latitude": 31.0449, "longitude": 121.4012}, "52.6.28.197": {"domain_name": null, "connection_times": 1, "HTTPS": 1, "malicious": false, "country_code": "US", "country": "United States", "city": "Ashburn", "latitude": 39.0481, "longitude": -77.4728}}