{"13.35.34.120": {"domain_name": null, "connection_times": 1481, "HTTP": 1481, "malicious": false, "country_code": "US", "country": "United States", "city": null, "latitude": 37.751, "longitude": -97.822}, "13.35.34.128": {"domain_name": "d2f3j5dunxlcz0.cloudfront.net", "connection_times": 137, "HTTPS": 137, "malicious": false, "country_code": "US", "country": "United States", "city": null, "latitude": 37.751, "longitude": -97.822}, "13.251.124.99": {"domain_name": "log.dzhwread.com", "connection_times": 127, "HTTPS": 127, "malicious": false, "country_code": "SG", "country": "Singapore", "city": "Singapore", "latitude": 1.2929, "longitude": 103.8547}, "13.228.129.198": {"domain_name": null, "connection_times": 119, "HTTP": 119, "malicious": false, "country_code": "SG", "country": "Singapore", "city": "Singapore", "latitude": 1.2929, "longitude": 103.8547}, "69.171.250.15": {"domain_name": "star.c10r.facebook.com", "connection_times": 91, "HTTPS": 91, "malicious": false, "country_code": "US", "country": "United States", "city": "West Chester", "latitude": 39.9845, "longitude": -75.586}, "185.151.204.10": {"domain_name": null, "connection_times": 41, "HTTPS": 41, "malicious": false, "country_code": "DE", "country": "Germany", "city": null, "latitude": 51.2993, "longitude": 9.491}, "203.107.1.65": {"domain_name": null, "connection_times": 39, "HTTP": 39, "malicious": false, "country_code": "CN", "country": "China", "city": null, "latitude": 34.7725, "longitude": 113.7266}, "203.119.207.250": {"domain_name": "dualstack-na61-na62.wagbridge.alibaba.tanx.com.gds.alibabadns.com", "connection_times": 38, "HTTPS": 38, "malicious": false, "country_code": "CN", "country": "China", "city": null, "latitude": 34.7725, "longitude": 113.7266}, "13.35.34.113": {"domain_name": null, "connection_times": 24, "HTTPS": 24, "malicious": false, "country_code": "US", "country": "United States", "city": null, "latitude": 37.751, "longitude": -97.822}, "168.95.1.1": {"domain_name": null, "connection_times": 18, "DNS": 18, "malicious": true, "country_code": "TW", "country": "Taiwan", "city": null, "latitude": 23.5, "longitude": 121.0}, "106.11.250.205": {"domain_name": "sh.wagbridge.aliyun-inc.com.gds.alibabadns.com", "connection_times": 13, "HTTP": 13, "malicious": false, "country_code": "CN", "country": "China", "city": "Shanghai", "latitude": 31.0449, "longitude": 121.4012}}