{"18.163.26.14": {"domain_name": "http-https-2042057376.ap-east-1.elb.amazonaws.com", "connection_times": 1050, "HTTPS": 1050, "malicious": false, "country_code": "HK", "country": "Hong Kong", "city": null, "latitude": 22.2909, "longitude": 114.15}, "173.222.180.245": {"domain_name": "e5026.b.akamaiedge.net", "connection_times": 271, "HTTPS": 271, "malicious": false, "country_code": "US", "country": "United States", "city": null, "latitude": 37.751, "longitude": -97.822}, "18.163.83.83": {"domain_name": "http-https-2042057376.ap-east-1.elb.amazonaws.com", "connection_times": 260, "HTTPS": 260, "malicious": false, "country_code": "HK", "country": "Hong Kong", "city": null, "latitude": 22.2909, "longitude": 114.15}, "210.66.210.14": {"domain_name": "www.moneydj.com", "connection_times": 231, "HTTPS": 231, "malicious": false, "country_code": "TW", "country": "Taiwan", "city": null, "latitude": 23.5, "longitude": 121.0}, "172.217.160.118": {"domain_name": "i.ytimg.com", "connection_times": 89, "HTTPS": 89, "malicious": false, "country_code": "US", "country": "United States", "city": null, "latitude": 37.751, "longitude": -97.822}, "69.171.250.15": {"domain_name": null, "connection_times": 76, "HTTPS": 76, "malicious": false, "country_code": "US", "country": "United States", "city": "West Chester", "latitude": 39.9845, "longitude": -75.586}, "172.217.160.110": {"domain_name": "app-measurement.com", "connection_times": 44, "HTTPS": 44, "malicious": false, "country_code": "US", "country": "United States", "city": null, "latitude": 37.751, "longitude": -97.822}, "172.217.160.74": {"domain_name": null, "connection_times": 27, "HTTPS": 27, "malicious": false, "country_code": "US", "country": "United States", "city": null, "latitude": 37.751, "longitude": -97.822}, "168.95.1.1": {"domain_name": null, "connection_times": 22, "DNS": 22, "malicious": true, "country_code": "TW", "country": "Taiwan", "city": null, "latitude": 23.5, "longitude": 121.0}, "52.48.181.250": {"domain_name": null, "connection_times": 19, "HTTPS": 19, "malicious": false, "country_code": "IE", "country": "Ireland", "city": "Dublin", "latitude": 53.3338, "longitude": -6.2488}, "172.217.24.14": {"domain_name": null, "connection_times": 18, "HTTPS": 18, "malicious": false, "country_code": "US", "country": "United States", "city": null, "latitude": 37.751, "longitude": -97.822}, "203.205.254.111": {"domain_name": null, "connection_times": 11, "HTTP": 11, "malicious": false, "country_code": "HK", "country": "Hong Kong", "city": null, "latitude": 22.25, "longitude": 114.1667}}